[{"lat":31.87967012594975,"lon":-109.7514325492433,"county":"Cochise County"},{"lat":33.728835177962466,"lon":-113.98246227163594,"county":"La Paz County"},{"lat":33.799471024882465,"lon":-110.81020749290676,"county":"Gila County"},{"lat":32.099224367279355,"lon":-111.78834386043795,"county":"Pima County"},{"lat":32.904973624938386,"lon":-111.34490567372957,"county":"Pinal County"},{"lat":31.526122757000138,"lon":-110.84668349288576,"county":"Santa Cruz County"},{"lat":32.768628008153556,"lon":-113.90562898046862,"county":"Yuma County"},{"lat":34.599218148475686,"lon":-112.5529285446511,"county":"Yavapai County"},{"lat":32.93215189080092,"lon":-109.88717363607962,"county":"Graham County"},{"lat":33.214038986151195,"lon":-109.23995730330725,"county":"Greenlee County"},{"lat":35.83623785932071,"lon":-111.76868722831657,"county":"Coconino County"},{"lat":35.69847946289903,"lon":-113.76175139223878,"county":"Mohave County"},{"lat":35.38434212166874,"lon":-109.48843019447844,"county":"Apache County"},{"lat":33.34855875774523,"lon":-112.49304367581911,"county":"Maricopa County"},{"lat":35.39078853740291,"lon":-110.3204028009603,"county":"Navajo County"}]