[{"lat":37.2778834052338,"lon":-105.42826692552042,"county":"Costilla"},{"lat":40.66621001075773,"lon":-106.34241248630268,"county":"Jackson"},{"lat":38.74677719859784,"lon":-106.19394989226139,"county":"Chaffee"},{"lat":39.28640816617946,"lon":-104.13546015265368,"county":"Elbert"},{"lat":38.88199558570712,"lon":-105.16161771420084,"county":"Teller"},{"lat":37.95525655011536,"lon":-102.39339630266281,"county":"Prowers"},{"lat":40.87609322762942,"lon":-102.35187066265792,"county":"Sedgwick"},{"lat":39.7620734340713,"lon":-104.87648119262302,"county":"Denver"},{"lat":37.58248867897266,"lon":-106.38307344183887,"county":"Rio Grande"},{"lat":37.33859701216606,"lon":-108.59699067656945,"county":"Montezuma"},{"lat":40.6203958071343,"lon":-108.20778241643163,"county":"Moffat"},{"lat":37.201089030302654,"lon":-106.19141977760349,"county":"Conejos"},{"lat":37.28660354620344,"lon":-107.84347085651315,"county":"La Plata"},{"lat":37.75197098794527,"lon":-108.517387698173,"county":"Dolores"},{"lat":39.30609815855565,"lon":-102.60254850197938,"county":"Kit Carson"},{"lat":40.55418347096822,"lon":-104.39425485122763,"county":"Weld"},{"lat":38.433857573010975,"lon":-102.74073070781229,"county":"Kiowa"},{"lat":38.08138223959061,"lon":-106.28104698627023,"county":"Saguache"},{"lat":39.970800314034605,"lon":-103.20159438664442,"county":"Washington"},{"lat":37.19386221270068,"lon":-107.04810333210898,"county":"Archuleta"},{"lat":37.31943794211462,"lon":-102.56052486458812,"county":"Baca"},{"lat":39.32971146642826,"lon":-104.92957698337638,"county":"Douglas"},{"lat":38.17367870238408,"lon":-104.5128573671417,"county":"Pueblo"},{"lat":39.62776455509103,"lon":-106.69540133976395,"county":"Eagle"},{"lat":40.59432442438729,"lon":-102.35753417414927,"county":"Phillips"},{"lat":39.980877040428766,"lon":-108.21795078210299,"county":"Rio Blanco"},{"lat":40.48421406916032,"lon":-106.99087282042416,"county":"Routt"},{"lat":39.6340017620392,"lon":-106.11610256858923,"county":"Summit"},{"lat":39.87507968736378,"lon":-104.33789356090666,"county":"Adams"},{"lat":40.72479656620704,"lon":-103.11003360553151,"county":"Logan"},{"lat":38.403495556547064,"lon":-108.26930826900227,"county":"Montrose"},{"lat":39.60078617089033,"lon":-107.9044200545818,"county":"Garfield"},{"lat":38.83259191091093,"lon":-104.52543719540513,"county":"El Paso"},{"lat":37.66873918502691,"lon":-106.92406128316121,"county":"Mineral"},{"lat":39.11911249826123,"lon":-105.71692233378633,"county":"Park"},{"lat":37.6846519992592,"lon":-104.96056117007764,"county":"Huerfano"},{"lat":37.95500623683919,"lon":-103.07173034750859,"county":"Bent"},{"lat":39.68917552074519,"lon":-105.64428734250788,"county":"Clear Creek"},{"lat":39.202227824959344,"lon":-106.34491142252232,"county":"Lake"},{"lat":38.828256251959374,"lon":-102.60364578698457,"county":"Cheyenne"},{"lat":37.316866117185484,"lon":-104.03905822290994,"county":"Las Animas"},{"lat":38.108747749145365,"lon":-105.36752591589142,"county":"Custer"},{"lat":37.57317077175053,"lon":-105.78819509422345,"county":"Alamosa"},{"lat":40.00272032920464,"lon":-102.42417710552972,"county":"Yuma"},{"lat":39.0188256511368,"lon":-108.4672811890073,"county":"Mesa"},{"lat":40.102500236451945,"lon":-106.1180364931253,"county":"Grand"},{"lat":38.1554771870621,"lon":-107.76909108100328,"county":"Ouray"},{"lat":38.66647479553301,"lon":-107.03175260261513,"county":"Gunnison"},{"lat":38.00474906849844,"lon":-108.40600845479118,"county":"San Miguel"},{"lat":40.26263567088249,"lon":-103.81003888437175,"county":"Morgan"},{"lat":40.667145733142554,"lon":-105.46161727657278,"county":"Larimer"},{"lat":37.90258955715053,"lon":-103.71646572415688,"county":"Otero"},{"lat":39.21723923016345,"lon":-106.91655295681551,"county":"Pitkin"},{"lat":38.98729606577205,"lon":-103.5145664313132,"county":"Lincoln"},{"lat":38.32665410284643,"lon":-103.78479172124698,"county":"Crowley"},{"lat":37.76401523994108,"lon":-107.67625436517498,"county":"San Juan"},{"lat":38.47353535750498,"lon":-105.43998345734211,"county":"Fremont"},{"lat":39.58590702932574,"lon":-105.250739530129,"county":"Jefferson"},{"lat":39.650059277502336,"lon":-104.33919499068516,"county":"Arapahoe"},{"lat":39.95415926288348,"lon":-105.05267387925002,"county":"Broomfield"},{"lat":40.09239593427059,"lon":-105.35761095776597,"county":"Boulder"},{"lat":37.82089348252089,"lon":-107.3002720065096,"county":"Hinsdale"},{"lat":38.86165793472815,"lon":-107.86317770595683,"county":"Delta"},{"lat":39.85755059053268,"lon":-105.5225316868278,"county":"Gilpin"}]
