[{"lat":34.02088415035411,"lon":-103.47954415557167,"county":"Roosevelt"},{"lat":35.50604363286009,"lon":-105.97623054333998,"county":"Santa Fe"},{"lat":34.640868142242894,"lon":-105.85092651285436,"county":"Torrance"},{"lat":35.581436535612056,"lon":-108.26231606577555,"county":"McKinley"},{"lat":36.606661008045855,"lon":-104.64661937560318,"county":"Colfax"},{"lat":35.103949571201014,"lon":-103.55098726050089,"county":"Quay"},{"lat":36.48091581061008,"lon":-103.47060619277238,"county":"Union"},{"lat":32.61286185198543,"lon":-105.74105776909036,"county":"Otero"},{"lat":36.57743379514578,"lon":-105.63111051308356,"county":"Taos"},{"lat":32.73836618009405,"lon":-108.38222440792373,"county":"Grant"},{"lat":35.68878661295641,"lon":-106.86497671318632,"county":"Sandoval"},{"lat":36.510016846630315,"lon":-106.69212386650122,"county":"Rio Arriba"},{"lat":33.13078143134614,"lon":-107.19279061053517,"county":"Sierra"},{"lat":33.74479453283274,"lon":-105.45912606275189,"county":"Lincoln"},{"lat":34.86350556466302,"lon":-104.79130659888031,"county":"Guadalupe"},{"lat":33.36220343545874,"lon":-104.46916507116568,"county":"Chaves"},{"lat":34.573996008706565,"lon":-103.34723759922291,"county":"Curry"},{"lat":32.35202294814262,"lon":-106.83318650814508,"county":"Dona Ana"},{"lat":35.85787569123962,"lon":-103.81922476245835,"county":"Harding"},{"lat":31.912719290424985,"lon":-108.7140788506518,"county":"Hidalgo"},{"lat":35.86935623227301,"lon":-106.30725950261365,"county":"Los Alamos"},{"lat":34.91431882020281,"lon":-107.99984840487338,"county":"Cibola"},{"lat":34.34242374314978,"lon":-104.41247847847997,"county":"DeBaca"},{"lat":32.1822734794609,"lon":-107.74983912337221,"county":"Luna"},{"lat":36.01040389936968,"lon":-104.94437056707697,"county":"Mora"},{"lat":32.47171804769886,"lon":-104.30414863338079,"county":"Eddy"},{"lat":36.50942186185006,"lon":-108.3206893741299,"county":"San Juan"},{"lat":32.790307499012215,"lon":-103.41238391606392,"county":"Lea"},{"lat":34.007305152792036,"lon":-106.92939589838183,"county":"Socorro"},{"lat":33.91479629686539,"lon":-108.40470025285978,"county":"Catron"},{"lat":35.481380251837656,"lon":-104.81581399598815,"county":"San Miguel"},{"lat":35.05162727186245,"lon":-106.67043775046939,"county":"Bernalillo"},{"lat":34.71557600414896,"lon":-106.80929108382115,"county":"Valencia"}]
