[{"lat":45.232891416218365,"lon":-123.30821344443395,"county":"Yamhill County, OR"},{"lat":44.63047559134714,"lon":-121.1755573567243,"county":"Jefferson County, OR"},{"lat":42.46576513959516,"lon":-124.21435849430355,"county":"Curry County, OR"},{"lat":44.49079440062137,"lon":-119.00755675978208,"county":"Grant County, OR"},{"lat":44.488896734849405,"lon":-122.53426968493952,"county":"Linn County, OR"},{"lat":45.59138022077827,"lon":-118.73725376738993,"county":"Umatilla County, OR"},{"lat":44.725534841917344,"lon":-120.0269662149764,"county":"Wheeler County, OR"},{"lat":45.16029936474825,"lon":-121.16819737802967,"county":"Wasco County, OR"},{"lat":43.186898682179354,"lon":-117.62306347531218,"county":"Malheur County, OR"},{"lat":45.54738755738718,"lon":-122.41521929134623,"county":"Multnomah County, OR"},{"lat":44.903728786349,"lon":-123.41336282225248,"county":"Polk County, OR"},{"lat":46.0173362344879,"lon":-123.71660654091549,"county":"Clatsop County, OR"},{"lat":42.79178475257675,"lon":-120.38407747954747,"county":"Lake County, OR"},{"lat":43.28514553968387,"lon":-123.1780926706037,"county":"Douglas County, OR"},{"lat":45.30991764739226,"lon":-118.009344001209,"county":"Union County, OR"},{"lat":44.491712312336865,"lon":-123.42950491526256,"county":"Benton County, OR"},{"lat":45.188599911326726,"lon":-122.22062793181358,"county":"Clackamas County, OR"},{"lat":43.059988837838176,"lon":-118.96648552148636,"county":"Harney County, OR"},{"lat":45.55990894101639,"lon":-123.09818741556049,"county":"Washington County, OR"},{"lat":44.64488537652065,"lon":-123.90769010615033,"county":"Lincoln County, OR"},{"lat":42.6843111478649,"lon":-121.64963215245665,"county":"Klamath County, OR"},{"lat":45.579438790986906,"lon":-117.18049177309058,"county":"Wallowa County, OR"},{"lat":44.142454469496286,"lon":-120.35572863219704,"county":"Crook County, OR"},{"lat":42.431698908330766,"lon":-122.72869658658671,"county":"Jackson County, OR"},{"lat":44.70917310700715,"lon":-117.67658769294282,"county":"Baker County, OR"},{"lat":43.18421279632582,"lon":-124.09321714352272,"county":"Coos County, OR"},{"lat":45.377430443855005,"lon":-120.21093912837378,"county":"Gilliam County, OR"},{"lat":45.5190178360089,"lon":-121.65106856540878,"county":"Hood River County, OR"},{"lat":43.91552311436502,"lon":-121.22621501046216,"county":"Deschutes County, OR"},{"lat":42.36512292199626,"lon":-123.55560350359106,"county":"Josephine County, OR"},{"lat":44.903446329190835,"lon":-122.58343068178426,"county":"Marion County, OR"},{"lat":45.404734254087,"lon":-120.68945971168435,"county":"Sherman County, OR"},{"lat":45.4179808963535,"lon":-119.5837232520185,"county":"Morrow County, OR"},{"lat":45.45568435181228,"lon":-123.75903241896334,"county":"Tillamook County, OR"},{"lat":45.94369529068265,"lon":-123.08795680726845,"county":"Columbia County, OR"},{"lat":43.94239353735696,"lon":-122.87487974093379,"county":"Lane County, OR"}]